[
  {
    "id": "paris-loft-01",
    "title": "Loft rénové proche Canal Saint-Martin",
    "type": "sale",
    "price": 895000,
    "currency": "EUR",
    "city": "Paris",
    "country": "FR",
    "lat": 48.871,
    "lng": 2.365,
    "surface": 86,
    "rooms": 3,
    "dpe": "D",
    "images": ["main.jpg", "living.jpg", "kitchen.jpg"]
  },
  {
    "id": "lyon-rent-02",
    "title": "T2 lumineux avec balcon, Part-Dieu",
    "type": "rent",
    "price": 1280,
    "currency": "EUR",
    "city": "Lyon",
    "country": "FR",
    "lat": 45.760,
    "lng": 4.861,
    "surface": 49,
    "rooms": 2,
    "dpe": "C",
    "images": ["main.jpg", "bedroom.jpg", "balcony.jpg"]
  },
  {
    "id": "marseille-flat-03",
    "title": "Appartement vue mer, Endoume",
    "type": "sale",
    "price": 520000,
    "currency": "EUR",
    "city": "Marseille",
    "country": "FR",
    "lat": 43.282,
    "lng": 5.353,
    "surface": 72,
    "rooms": 3,
    "dpe": "E",
    "images": ["main.jpg", "sea-view.jpg", "bathroom.jpg"]
  },
  {
    "id": "lille-maison-04",
    "title": "Maison familiale avec jardin, Vauban",
    "type": "sale",
    "price": 469000,
    "currency": "EUR",
    "city": "Lille",
    "country": "FR",
    "lat": 50.636,
    "lng": 3.041,
    "surface": 118,
    "rooms": 5,
    "dpe": "C",
    "images": ["main.jpg", "garden.jpg", "office.jpg"]
  },
  {
    "id": "nantes-rent-05",
    "title": "Studio centre-ville, refait à neuf",
    "type": "rent",
    "price": 760,
    "currency": "EUR",
    "city": "Nantes",
    "country": "FR",
    "lat": 47.217,
    "lng": -1.553,
    "surface": 28,
    "rooms": 1,
    "dpe": "B",
    "images": ["main.jpg", "kitchenette.jpg", "bath.jpg"]
  }
]
